[
  {
    "nom": "blue parc",
    "adresse": {
      "state": "grand tunis",
      "lat": "36.715372410000626",
      "long": "10.185270095785462"
    }
  },
  {
    "nom": "fadi football academy",
    "adresse": {
      "state": "grand tunis",
      "lat": "36.71623453152715",
      "long": "10.185294133481346"
    }
  },
  {
    "nom": "terrain limam",
    "adresse": {
      "state": "grand tunis",
      "lat": "36.69343121859829",
      "long": "10.165633356551771"
    }
  },
  {
    "nom": "terrain hamdi lahmer",
    "adresse": {
      "state": "grand tunis",
      "lat": "36.70172385495602",
      "long": "10.160207829552675"
    }
  },
  {
    "nom": "fan foot",
    "adresse": {
      "state": "grand tunis",
      "lat": "36.70518279533226",
      "long": "10.23129773470125"
    }
  },
  {
    "nom": "terrain de foot morneg",
    "adresse": {
      "state": "grand tunis",
      "lat": "36.68304982444026",
      "long": "10.294609574370472"
    }
  },
  {
    "nom": "barca parc académie",
    "adresse": {
      "state": "grand tunis",
      "lat": "36.69226483712823",
      "long": "10.277681217778424"
    }
  },
  {
    "nom": "univers sports",
    "adresse": {
      "state": "grand tunis",
      "lat": "36.685301729020644",
      "long": "10.28806106226354"
    }
  },
  {
    "nom": "zinine football club",
    "adresse": {
      "state": "grand tunis",
      "lat": "36.705835890690246",
      "long": "10.296592419709496"
    }
  },
  {
    "nom": "terrain ayari ( esperance football club )",
    "adresse": {
      "state": "grand tunis",
      "lat": "36.73421912663452",
      "long": "10.262283711614987"
    }
  },
  {
    "nom": "pro foot academy el zahra",
    "adresse": {
      "state": "grand tunis",
      "lat": "36.73400795396801",
      "long": "10.26245609933421"
    }
  },
  {
    "nom": "tiki taka stadium",
    "adresse": {
      "state": "grand tunis",
      "lat": "36.73567619577058",
      "long": "10.253520205317585"
    }
  },
  {
    "nom": "messilla football academy",
    "adresse": {
      "state": "grand tunis",
      "lat": "36.74015543223344",
      "long": "10.28511860126658"
    }
  },
  {
    "nom": "mini terrain foot (seltene)",
    "adresse": {
      "state": "grand tunis",
      "lat": "36.70157877771446",
      "long": "10.41188199549753"
    }
  },
  {
    "nom": "maracana club el zahra",
    "adresse": {
      "state": "grand tunis",
      "lat": "36.7356342957928",
      "long": "10.308591832534596"
    }
  },
  {
    "nom": "carthage football academy",
    "adresse": {
      "state": "grand tunis",
      "lat": "36.714907728725834",
      "long": "10.26130135310071"
    }
  },
  {
    "nom": "euphoria stadium",
    "adresse": {
      "state": "grand tunis",
      "lat": "36.71484391005038",
      "long": "10.261362668340494"
    }
  },
  {
    "nom": "Arena club",
    "adresse": {
      "state": "grand tunis",
      "lat": "36.750079445429215",
      "long": "10.28553360429892"
    }
  },
  {
    "nom": "forest club",
    "adresse": {
      "state": "grand tunis",
      "lat": "36.75471400551474",
      "long": "10.269184618116945"
    }
  },
  {
    "nom": "baskettball court lmrah",
    "adresse": {
      "state": "grand tunis",
      "lat": "36.764333694693406",
      "long": "10.272127256811272"
    }
  },
  {
    "nom": "la bombonera stadium",
    "adresse": {
      "state": "grand tunis",
      "lat": "36.683337702882326",
      "long": "10.220740580325181"
    }
  },
  {
    "nom": "stade municipale el mourouj 1",
    "adresse": {
      "state": "grand tunis",
      "lat": "36.7405086246572",
      "long": "10.21301627466314"
    }
  },
  {
    "nom": "terrain ford",
    "adresse": {
      "state": "grand tunis",
      "lat": "36.729129799923925",
      "long": "10.234874060791274"
    }
  },
  {
    "nom": "terrain souissi foot academy",
    "adresse": {
      "state": "grand tunis",
      "lat": "36.74384364229099",
      "long": "10.221138976615434"
    }
  },
  {
    "nom": "terrain football el fendri",
    "adresse": {
      "state": "grand tunis",
      "lat": "36.761451742111994",
      "long": "10.106551255775729"
    }
  },
  {
    "nom": "terrain de foot ASM",
    "adresse": {
      "state": "grand tunis",
      "lat": "36.77354084781579",
      "long": "10.241386095268002"
    }
  },
  {
    "nom": "académie megrine",
    "adresse": {
      "state": "grand tunis",
      "lat": "36.77376536266545",
      "long": "10.241499418603619"
    }
  },
  {
    "nom": "terrain foot maracana",
    "adresse": {
      "state": "grand tunis",
      "lat": "36.75933361961186",
      "long": "10.102030075046132"
    }
  },
  {
    "nom": "terrain cr7",
    "adresse": {
      "state": "grand tunis",
      "lat": "36.77267214792906",
      "long": "10.064030206201313"
    }
  },
  {
    "nom": "terrain foot el khomssa",
    "adresse": {
      "state": "grand tunis",
      "lat": "36.7753048860601",
      "long": "10.08689660290818"
    }
  },
  {
    "nom": "terrain foot mornaguiya",
    "adresse": {
      "state": "grand tunis",
      "lat": "36.76147706181865",
      "long": "10.011504443787414"
    }
  },
  {
    "nom": "stade de hrairiya",
    "adresse": {
      "state": "grand tunis",
      "lat": "36.78866321983417",
      "long": "10.101016187476384"
    }
  },
  {
    "nom": "Terrain de foot Les Trois Colombes",
    "adresse": {
      "state": "grand tunis",
      "lat": "36.77475385636274",
      "long": "10.222346247800122"
    }
  },
  {
    "nom": "el ouardiya stadium football",
    "adresse": {
      "state": "grand tunis",
      "lat": "36.76744666908197",
      "long": "10.182676592402538"
    }
  },
  {
    "nom": "cbs bardo",
    "adresse": {
      "state": "grand tunis",
      "lat": "36.813329385551555",
      "long": "10.137134721045333"
    }
  },
  {
    "nom": "terrain de jeu beb assal",
    "adresse": {
      "state": "grand tunis",
      "lat": "36.81285694958314",
      "long": "10.168252226624388"
    }
  },
  {
    "nom": "belkahla stadium",
    "adresse": {
      "state": "grand tunis",
      "lat": "36.813330768209994",
      "long": "10.137142858329764"
    }
  },
  {
    "nom": "club des princes",
    "adresse": {
      "state": "grand tunis",
      "lat": "36.86201353001617",
      "long": "10.215293439617513"
    }
  },
  {
    "nom": "terrain foot kasser said 2",
    "adresse": {
      "state": "grand tunis",
      "lat": "36.822551888955964",
      "long": "10.120796919070381"
    }
  },
  {
    "nom": "terrain de foot el mouelhi",
    "adresse": {
      "state": "grand tunis",
      "lat": "36.86306312091529",
      "long": "10.130122863400679"
    }
  },
  {
    "nom": "golden goal",
    "adresse": {
      "state": "grand tunis",
      "lat": "36.8638922411252",
      "long": "10.115013060685964"
    }
  },
  {
    "nom": "green field football academy",
    "adresse": {
      "state": "grand tunis",
      "lat": "36.91681145607852",
      "long": "10.13092416068736"
    }
  },
  {
    "nom": "five stars",
    "adresse": {
      "state": "grand tunis",
      "lat": "36.92872603602578",
      "long": "10.135147628365768"
    }
  },
  {
    "nom": "parc des princes club",
    "adresse": {
      "state": "grand tunis",
      "lat": "36.92719485517962",
      "long": "10.13531727367036"
    }
  },
  {
    "nom": "camp nou",
    "adresse": {
      "state": "grand tunis",
      "lat": "36.838895585193164",
      "long": "10.04771059568667"
    }
  },
  {
    "nom": "bouaaza footnall club",
    "adresse": {
      "state": "grand tunis",
      "lat": "36.83869916759459",
      "long": "10.048497153493694"
    }
  },
  {
    "nom": "orange arena",
    "adresse": {
      "state": "grand tunis",
      "lat": "36.92828586623252",
      "long": "10.180919205859777"
    }
  },
  {
    "nom": "soccer club",
    "adresse": {
      "state": "grand tunis",
      "lat": "36.92635405210627",
      "long": "10.180591584897147"
    }
  },
  {
    "nom": "academie maracana sebri foot",
    "adresse": {
      "state": "grand tunis",
      "lat": "36.91846989318344",
      "long": "10.1024826404132"
    }
  },
  {
    "nom": "premium sports club",
    "adresse": {
      "state": "grand tunis",
      "lat": "36.88808050801317",
      "long": "10.299580357833495"
    }
  },
  {
    "nom": "training city gammarth",
    "adresse": {
      "state": "grand tunis",
      "lat": "36.88811161422379",
      "long": "10.299554206294506"
    }
  },
  {
    "nom": "l olympico club",
    "adresse": {
      "state": "grand tunis",
      "lat": "36.89588022481009",
      "long": "10.193598158287195"
    }
  },
  {
    "nom": "juventus academy la goulette",
    "adresse": {
      "state": "grand tunis",
      "lat": "36.815508393767274",
      "long": "10.298493785572008"
    }
  },
  {
    "nom": "juventus academy carthage",
    "adresse": {
      "state": "grand tunis",
      "lat": "36.84923540003119",
      "long": "10.32046452330124"
    }
  },
  {
    "nom": "juventus academy el khadhra",
    "adresse": {
      "state": "grand tunis",
      "lat": "36.83018573556568",
      "long": "10.186353353360166"
    }
  },
  {
    "nom": "juventus academie complexe cité des jeunes",
    "adresse": {
      "state": "grand tunis",
      "lat": "36.835842912000565",
      "long": "10.189518164405802"
    }
  },
  {
    "nom": "juventus academy ooredoo",
    "adresse": {
      "state": "grand tunis",
      "lat": "36.84115384776848",
      "long": "10.187647770539831"
    }
  },
  {
    "nom": "pyramide tamtam stadium",
    "adresse": {
      "state": "grand tunis",
      "lat": "36.830594792109416",
      "long": "10.220763588625898"
    }
  },
  {
    "nom": "san siro stadium",
    "adresse": {
      "state": "grand tunis",
      "lat": "36.83138137755941",
      "long": "10.221706217834166"
    }
  },
  {
    "nom": "complexe sportif de l'OMMP",
    "adresse": {
      "state": "grand tunis",
      "lat": "36.815228234389615",
      "long": "10.298268403687569"
    }
  },
  {
    "nom": "star academy foot",
    "adresse": {
      "state": "grand tunis",
      "lat": "36.83503289091135",
      "long": "10.3032431969917"
    }
  },
  {
    "nom": "olympysky club",
    "adresse": {
      "state": "grand tunis",
      "lat": "36.84537650892023",
      "long": "10.261025446399737"
    }
  },
  {
    "nom": "the hills football academy",
    "adresse": {
      "state": "grand tunis",
      "lat": "36.85948688144284",
      "long": "10.325283596303843"
    }
  },
  {
    "nom": "café 17",
    "adresse": {
      "state": "grand tunis",
      "lat": "36.8557982211644",
      "long": "10.272267655744372"
    }
  },
  {
    "nom": "terrain football ain zaghouan",
    "adresse": {
      "state": "grand tunis",
      "lat": "36.85838608828861",
      "long": "10.275366188035258"
    }
  },
  {
    "nom": "terrain maalga field",
    "adresse": {
      "state": "grand tunis",
      "lat": "36.862587166511524",
      "long": "10.322610292417862"
    }
  },
  {
    "nom": "legends football academy",
    "adresse": {
      "state": "grand tunis",
      "lat": "36.864704223163514",
      "long": "10.291483054156878"
    }
  },
  {
    "nom": "ifoot club marsa",
    "adresse": {
      "state": "grand tunis",
      "lat": "36.86900837938391",
      "long": "10.317744686741742"
    }
  },
  {
    "nom": "africa stadium foot",
    "adresse": {
      "state": "grand tunis",
      "lat": "36.86971321485492",
      "long": "10.316931787595205"
    }
  },
  {
    "nom": "mouihbi football academy",
    "adresse": {
      "state": "grand tunis",
      "lat": "36.871961315245144",
      "long": "10.316821473376663"
    }
  },
  {
    "nom": "futbol 4x4",
    "adresse": {
      "state": "grand tunis",
      "lat": "36.88282155902709",
      "long": "10.295217523417473"
    }
  },
  {
    "nom": "stade ben arous academy",
    "adresse": {
      "state": "grand tunis",
      "lat": "36.72136816168497",
      "long": "10.235108446516037"
    }
  },
  {
    "nom": "football fun academy",
    "adresse": {
      "state": "grand tunis",
      "lat": "36.87723375999941",
      "long": "10.234383598449963"
    }
  },
  {
    "nom": "foot school",
    "adresse": {
      "state": "grand tunis",
      "lat": "36.878963193826176",
      "long": "10.234090209133243"
    }
  },
  {
    "nom": "free style football's pitch",
    "adresse": {
      "state": "grand tunis",
      "lat": "36.87789019704011",
      "long": "10.231883174895422"
    }
  },
  {
    "nom": "feyenoord academy",
    "adresse": {
      "state": "grand tunis",
      "lat": "36.87440046440195",
      "long": "10.240315258942977"
    }
  },
  {
    "nom": "football school manouba",
    "adresse": {
      "state": "grand tunis",
      "lat": "36.87324329140961",
      "long": "10.120874151709384"
    }
  },
  {
    "nom": "football school",
    "adresse": {
      "state": "grand tunis",
      "lat": "36.8774417686699",
      "long": "10.140536517396516"
    }
  },
  {
    "nom": "stade sidi ameur",
    "adresse": {
      "state": "grand tunis",
      "lat": "36.7683961660622",
      "long": "10.18644422242419"
    }
  },
  {
    "nom": "terrain nabeul",
    "adresse": {
      "state": "grand tunis",
      "lat": "36.45908213105575",
      "long": "10.732865941880077"
    }
  },
  {
    "nom": "terrain nabeul",
    "adresse": {
      "state": "grand tunis",
      "lat": "36.45744863170302",
      "long": "10.735236584827328"
    }
  },
  {
    "nom": "terrain 34",
    "adresse": {
      "state": "grand tunis",
      "lat": "36.4622693444612",
      "long": "10.72764712765658"
    }
  },
  {
    "nom": "terrain football",
    "adresse": {
      "state": "grand tunis",
      "lat": "36.45649825559403",
      "long": "10.734369248190715"
    }
  },
  {
    "nom": "terrain football nabeul",
    "adresse": {
      "state": "grand tunis",
      "lat": "36.46104156615733",
      "long": "10.726201238536135"
    }
  },
  {
    "nom": "terrain foot les roses",
    "adresse": {
      "state": "grand tunis",
      "lat": "36.45849320925409",
      "long": "10.733961983442306"
    }
  }
]
